id,type,latitude,longitude,date,time,address,severity
INC001,Fire,37.7749,-122.4194,2025-01-01,08:15:00,123 Main St,High
INC002,EMS,37.7746,-122.4196,2025-01-01,09:30:00,456 Oak Ave,Medium
INC003,Hazmat,37.7740,-122.4190,2025-01-01,10:45:00,789 Pine St,Low
INC004,EMS,37.7752,-122.4198,2025-01-01,13:20:00,321 Elm St,Medium
INC005,Fire,37.7755,-122.4200,2025-01-02,07:45:00,654 Maple Dr,High